{
  "html_attributions" : [],
  "next_page_token" : "ATtYBwJRT7h-3EgeoZu9ngytTOJ63E8MEVnTbdcEilmTUGzE769k2VUmOE7AlqDivc-Y5l_QFAa2BSvLlC85GQ_hlubvFOdLohZPUsm7Uv8tLmSYGoxN_HbLOZT9IharR0rCHWmX8bJcP7u7xusEQjWLMf9GHZkpFuk0jKNuHM_moN34D-Wg170G1O0TaWTO_T058ax7j5QLuBlThks11BIvM_ORlsrbOOeLGZzJcLbNl9Ajx0PiyiK7-ifh-SjOY0nEnpzS82xI3i1roG_tW3e57NQW8ZydHHtkAmMsT1_9zN7Bou8Ak1Zack6EFHHvXz46DTy_urYGLP1sekAPIYyFlBjPyEe61ZLKtc6Cdqv0qL3TfKL4JZ8wX8DGqAmo211LWH2WqpdHaLuKTDrqV2WQ7DpAFuWPG-eXMuO8Eb_AUHsGzX6CXCP_",
  "results" : [
    {
      "business_status" : "OPERATIONAL",
      "geometry" : {
        "location" : {
          "lat" : 31.7438222,
          "lng" : 35.1773949
        },
        "viewport" : {
          "northeast" : {
            "lat" : 31.7451072802915,
            "lng" : 35.1787662302915
          },
          "southwest" : {
            "lat" : 31.7424093197085,
            "lng" : 35.1760682697085
          }
        }
      },
      "icon" : "https://maps.gstatic.com/mapfiles/place_api/icons/v1/png_71/park-71.png",
      "name" : "פארק ירושלים",
      "opening_hours" : {
        "open_now" : true
      },
      "photos" : [
        {
          "height" : 4624,
          "html_attributions" : [
            "\u003ca href=\"https://maps.google.com/maps/contrib/104017468576069794197\"\u003eRoman Bengaiev\u003c/a\u003e"
          ],
          "photo_reference" : "ATtYBwKKXSj8GFT_eqnUy_FDUKckYorMPhmtFHdzW99lCTfQ86aEHMYw7RkwFFVM4Q_7vg4OL6ZKRtdi3ooCONP0z5BkZ-bdicPY5-mEzPuIyiNug97PwTrf-ApofSb1mJfZb4_ztqdeeG3bztYj8E5szGQ8nYkYywU9rDodMvIs3sj6Uj1Z",
          "width" : 3472
        }
      ],
      "place_id" : "ChIJ0TxfaSnYAhURsPelpbiYZuo",
      "plus_code" : {
        "compound_code" : "P5VG+GX ירושלים, ישראל",
        "global_code" : "8G3QP5VG+GX"
      },
      "rating" : 4.4,
      "reference" : "ChIJ0TxfaSnYAhURsPelpbiYZuo",
      "scope" : "GOOGLE",
      "types" : [ "park", "tourist_attraction", "point_of_interest", "establishment" ],
      "user_ratings_total" : 1151,
      "vicinity" : "ירושלים"
    },
    {
      "business_status" : "OPERATIONAL",
      "geometry" : {
        "location" : {
          "lat" : 31.7591739,
          "lng" : 35.2064827
        },
        "viewport" : {
          "northeast" : {
            "lat" : 31.7604931302915,
            "lng" : 35.20788278029149
          },
          "southwest" : {
            "lat" : 31.7577951697085,
            "lng" : 35.20518481970849
          }
        }
      },
      "icon" : "https://maps.gstatic.com/mapfiles/place_api/icons/v1/png_71/park-71.png",
      "name" : "גן כלבים - סן סימון",
      "opening_hours" : {
        "open_now" : true
      },
      "photos" : [
        {
          "height" : 5312,
          "html_attributions" : [
            "\u003ca href=\"https://maps.google.com/maps/contrib/109053352093428633343\"\u003eאבי ולס\u003c/a\u003e"
          ],
          "photo_reference" : "ATtYBwK3QJGO01lC-e7JperZIZkR5l8Xx19iRtatZPHmQjDNj7D0fKkXG264LJnRkCDE7ezVVEukZYeLclKQjSxL69g1RYDsoTPgTu0s0CV32pBEaS6VimzXf6CobS8kKLpMJFm9lnPwfGBCh4u0mWIghpTcH-PCBIlfBIfXuVR7CdJVc9Gy",
          "width" : 2988
        }
      ],
      "place_id" : "ChIJPcUIdd3XAhURwZgm6bWEhFk",
      "plus_code" : {
        "compound_code" : "Q654+MH ירושלים, ישראל",
        "global_code" : "8G3QQ654+MH"
      },
      "rating" : 4.2,
      "reference" : "ChIJPcUIdd3XAhURwZgm6bWEhFk",
      "scope" : "GOOGLE",
      "types" : [ "park", "point_of_interest", "establishment" ],
      "user_ratings_total" : 152,
      "vicinity" : "ירושלים"
    },
    {
      "business_status" : "CLOSED_TEMPORARILY",
      "geometry" : {
        "location" : {
          "lat" : 31.7604779,
          "lng" : 35.2077409
        },
        "viewport" : {
          "northeast" : {
            "lat" : 31.7618048802915,
            "lng" : 35.20915773029149
          },
          "southwest" : {
            "lat" : 31.7591069197085,
            "lng" : 35.2064597697085
          }
        }
      },
      "icon" : "https://maps.gstatic.com/mapfiles/place_api/icons/v1/png_71/park-71.png",
      "name" : "גינה קהילתית - גינות שמרית",
      "permanently_closed" : true,
      "photos" : [
        {
          "height" : 3456,
          "html_attributions" : [
            "\u003ca href=\"https://maps.google.com/maps/contrib/118428999787361804009\"\u003eAviad Dahan-Weiss\u003c/a\u003e"
          ],
          "photo_reference" : "ATtYBwL30vaVY-Zhyz_jancoXEwyyasWfFm7dhDUIQTCE8V07SEgs8-QP6N50hC_WiXgyGQ180FLfvRjwVZCh8QCRixbCmWSZlDVq9MfHPhEdrrERh_DjpzW4t2UzOZZWsHwa6lo64LNA0AwrOGKv8QlvmUfH99XoSBVwHwNPXWl6kWgnAy9",
          "width" : 4608
        }
      ],
      "place_id" : "ChIJJ4thSdzXAhURbLCuHfdj5ag",
      "plus_code" : {
        "compound_code" : "Q665+53 ירושלים, ישראל",
        "global_code" : "8G3QQ665+53"
      },
      "rating" : 3.5,
      "reference" : "ChIJJ4thSdzXAhURbLCuHfdj5ag",
      "scope" : "GOOGLE",
      "types" : [ "park", "point_of_interest", "establishment" ],
      "user_ratings_total" : 2,
      "vicinity" : "6,, Rabbi Halafta 2, Jerusalem"
    },
    {
      "business_status" : "OPERATIONAL",
      "geometry" : {
        "location" : {
          "lat" : 31.7639599,
          "lng" : 35.2025382
        },
        "viewport" : {
          "northeast" : {
            "lat" : 31.7654090802915,
            "lng" : 35.2037607802915
          },
          "southwest" : {
            "lat" : 31.7627111197085,
            "lng" : 35.2010628197085
          }
        }
      },
      "icon" : "https://maps.gstatic.com/mapfiles/place_api/icons/v1/png_71/park-71.png",
      "name" : "גינה קהילתית רחל אלישר",
      "opening_hours" : {
        "open_now" : true
      },
      "photos" : [
        {
          "height" : 2269,
          "html_attributions" : [
            "\u003ca href=\"https://maps.google.com/maps/contrib/103786777004855108375\"\u003eגינה קהילתית רחל אלישר\u003c/a\u003e"
          ],
          "photo_reference" : "ATtYBwKgtTG-KCEPQ_DsC2R0qS1Pso-TurMj6Qtyn2N2TiDDQOiVDA-Dqcp2lWYmWVCZNeM6eb7TLnZ08Y1F4PsJfzDBD7kFM7JrgsS_21yGxcFmGebCAFf0rYllwnSllAHq8xMkAnUBt3IpWLGlcZ6aCUQMGigwcPJ8QBZ80rA8TusnUw1E",
          "width" : 4032
        }
      ],
      "place_id" : "ChIJU13kXcPXAhURWLDPHTEvOSc",
      "plus_code" : {
        "compound_code" : "Q673+H2 ירושלים, ישראל",
        "global_code" : "8G3QQ673+H2"
      },
      "rating" : 4.4,
      "reference" : "ChIJU13kXcPXAhURWLDPHTEvOSc",
      "scope" : "GOOGLE",
      "types" : [ "park", "point_of_interest", "establishment" ],
      "user_ratings_total" : 24,
      "vicinity" : "מעלות יצחק א.עבאדי, ירושלים"
    },
    {
      "business_status" : "OPERATIONAL",
      "geometry" : {
        "location" : {
          "lat" : 31.7522709,
          "lng" : 35.1947529
        },
        "viewport" : {
          "northeast" : {
            "lat" : 31.7536198802915,
            "lng" : 35.19610188029149
          },
          "southwest" : {
            "lat" : 31.7509219197085,
            "lng" : 35.1934039197085
          }
        }
      },
      "icon" : "https://maps.gstatic.com/mapfiles/place_api/icons/v1/png_71/park-71.png",
      "name" : "גן אלמליח",
      "opening_hours" : {
        "open_now" : true
      },
      "photos" : [
        {
          "height" : 4000,
          "html_attributions" : [
            "\u003ca href=\"https://maps.google.com/maps/contrib/108474053821643584796\"\u003eאלי בנימין\u003c/a\u003e"
          ],
          "photo_reference" : "ATtYBwIZUXnsI6ZgdkT5PBpkJMJ1JveDu0CKHwYDuddlt4ebjFuNqRq4YwNEHEVZ8NxACNpqV5Hp0NRRF1QRX_AbegzT150WFDQrdaqc7o7-DV_mZQAZveJi3ZPaWxemlKr6zhFQMQapeSp2ICsYM3TBfg77KljDqO2pjh0uuoIKJ_1zyieX",
          "width" : 3000
        }
      ],
      "place_id" : "ChIJ_8g9Zu3XAhURD5crDzvxyJ8",
      "plus_code" : {
        "compound_code" : "Q52V+WW ירושלים, ישראל",
        "global_code" : "8G3QQ52V+WW"
      },
      "rating" : 4.1,
      "reference" : "ChIJ_8g9Zu3XAhURD5crDzvxyJ8",
      "scope" : "GOOGLE",
      "types" : [ "park", "point_of_interest", "establishment" ],
      "user_ratings_total" : 284,
      "vicinity" : "ירושלים"
    },
    {
      "business_status" : "OPERATIONAL",
      "geometry" : {
        "location" : {
          "lat" : 31.7474704,
          "lng" : 35.1845809
        },
        "viewport" : {
          "northeast" : {
            "lat" : 31.7488340802915,
            "lng" : 35.1859199302915
          },
          "southwest" : {
            "lat" : 31.7461361197085,
            "lng" : 35.1832219697085
          }
        }
      },
      "icon" : "https://maps.gstatic.com/mapfiles/place_api/icons/v1/png_71/park-71.png",
      "name" : "חניון פארק המסילה מלחה",
      "place_id" : "ChIJ5_VnnCnXAhURAlxiw5Lg_HM",
      "plus_code" : {
        "compound_code" : "P5WM+XR ירושלים, ישראל",
        "global_code" : "8G3QP5WM+XR"
      },
      "reference" : "ChIJ5_VnnCnXAhURAlxiw5Lg_HM",
      "scope" : "GOOGLE",
      "types" : [ "park", "point_of_interest", "establishment" ],
      "vicinity" : "מלחה, ירושלים"
    },
    {
      "business_status" : "CLOSED_TEMPORARILY",
      "geometry" : {
        "location" : {
          "lat" : 31.7523643,
          "lng" : 35.19821460000001
        },
        "viewport" : {
          "northeast" : {
            "lat" : 31.7537132802915,
            "lng" : 35.1995635802915
          },
          "southwest" : {
            "lat" : 31.7510153197085,
            "lng" : 35.1968656197085
          }
        }
      },
      "icon" : "https://maps.gstatic.com/mapfiles/place_api/icons/v1/png_71/park-71.png",
      "name" : "מעון קנגרו",
      "permanently_closed" : true,
      "place_id" : "ChIJU548PpnXAhURbXcU2hTJ9SY",
      "plus_code" : {
        "compound_code" : "Q52X+W7 ירושלים, ישראל",
        "global_code" : "8G3QQ52X+W7"
      },
      "reference" : "ChIJU548PpnXAhURbXcU2hTJ9SY",
      "scope" : "GOOGLE",
      "types" : [ "park", "point_of_interest", "establishment" ],
      "vicinity" : "ירושלים"
    },
    {
      "business_status" : "OPERATIONAL",
      "geometry" : {
        "location" : {
          "lat" : 31.74706,
          "lng" : 35.1835784
        },
        "viewport" : {
          "northeast" : {
            "lat" : 31.7483945302915,
            "lng" : 35.1849242802915
          },
          "southwest" : {
            "lat" : 31.7456965697085,
            "lng" : 35.18222631970851
          }
        }
      },
      "icon" : "https://maps.gstatic.com/mapfiles/place_api/icons/v1/png_71/park-71.png",
      "name" : "פארק נחל רפאים",
      "opening_hours" : {
        "open_now" : true
      },
      "photos" : [
        {
          "height" : 2976,
          "html_attributions" : [
            "\u003ca href=\"https://maps.google.com/maps/contrib/110673542417620872594\"\u003eאורי גל\u003c/a\u003e"
          ],
          "photo_reference" : "ATtYBwJ_VHxHqplMwKOZGNhz0FXiNMRy2FTkK4mw7r9z8EBO99EbIgNOU8w3_GRhNkEdp_h1zJLgDX4VPdqipW3IWARfRCqVzaYKQ-kTKrWthW0b8NboHTZwXWbyrqHp6UR7mFGA3STYyypM0LGlRFqlZGjddkZD7EErRRWyQF3RI4fdJmIY",
          "width" : 3968
        }
      ],
      "place_id" : "ChIJjd2AQ4jXAhURcT43vwLgVDE",
      "plus_code" : {
        "compound_code" : "P5WM+RC ירושלים, ישראל",
        "global_code" : "8G3QP5WM+RC"
      },
      "rating" : 4.4,
      "reference" : "ChIJjd2AQ4jXAhURcT43vwLgVDE",
      "scope" : "GOOGLE",
      "types" : [ "tourist_attraction", "park", "point_of_interest", "establishment" ],
      "user_ratings_total" : 375,
      "vicinity" : "ירושלים"
    },
    {
      "business_status" : "CLOSED_TEMPORARILY",
      "geometry" : {
        "location" : {
          "lat" : 31.753994,
          "lng" : 35.1914366
        },
        "viewport" : {
          "northeast" : {
            "lat" : 31.75538338029149,
            "lng" : 35.19271883029149
          },
          "southwest" : {
            "lat" : 31.75268541970849,
            "lng" : 35.1900208697085
          }
        }
      },
      "icon" : "https://maps.gstatic.com/mapfiles/place_api/icons/v1/png_71/park-71.png",
      "name" : "Park",
      "permanently_closed" : true,
      "photos" : [
        {
          "height" : 1920,
          "html_attributions" : [
            "\u003ca href=\"https://maps.google.com/maps/contrib/106337299827554869699\"\u003eMoises Zack\u003c/a\u003e"
          ],
          "photo_reference" : "ATtYBwJkcWHj4UWTol_VU_U0iLeOqcZDQ7ApDviSbFRx7ftDlZk0mekZrVZG-YQCAxvxlYZazF2LCW2rFZtKmgnrCyf3hqNpq-vEs5ns_QWIngSG4bQz0IIT3sr7unpAMksNKaHIun1bG3AsmZFlKOLutrcMXUUY62dRH2flX1uLqADgn6pI",
          "width" : 1080
        }
      ],
      "place_id" : "ChIJoUOZ59fXAhURWwTCiGN4BM8",
      "plus_code" : {
        "compound_code" : "Q53R+HH ירושלים, ישראל",
        "global_code" : "8G3QQ53R+HH"
      },
      "reference" : "ChIJoUOZ59fXAhURWwTCiGN4BM8",
      "scope" : "GOOGLE",
      "types" : [ "park", "point_of_interest", "establishment" ],
      "vicinity" : "ירושלים"
    },
    {
      "business_status" : "OPERATIONAL",
      "geometry" : {
        "location" : {
          "lat" : 31.7543051,
          "lng" : 35.1920082
        },
        "viewport" : {
          "northeast" : {
            "lat" : 31.7556650302915,
            "lng" : 35.19320053029151
          },
          "southwest" : {
            "lat" : 31.7529670697085,
            "lng" : 35.19050256970851
          }
        }
      },
      "icon" : "https://maps.gstatic.com/mapfiles/place_api/icons/v1/png_71/park-71.png",
      "name" : "גן טכנולוגי",
      "place_id" : "ChIJYafKxZLXAhURj64auTt6WXM",
      "plus_code" : {
        "compound_code" : "Q53R+PR ירושלים, ישראל",
        "global_code" : "8G3QQ53R+PR"
      },
      "reference" : "ChIJYafKxZLXAhURj64auTt6WXM",
      "scope" : "GOOGLE",
      "types" : [ "park", "point_of_interest", "establishment" ],
      "vicinity" : "אברהם אלמליח 27, ירושלים"
    },
    {
      "business_status" : "CLOSED_TEMPORARILY",
      "geometry" : {
        "location" : {
          "lat" : 31.7469568,
          "lng" : 35.1829963
        },
        "viewport" : {
          "northeast" : {
            "lat" : 31.7483333802915,
            "lng" : 35.18431088029151
          },
          "southwest" : {
            "lat" : 31.7456354197085,
            "lng" : 35.18161291970851
          }
        }
      },
      "icon" : "https://maps.gstatic.com/mapfiles/place_api/icons/v1/png_71/park-71.png",
      "name" : "מבואה פארק נחל רפאים",
      "permanently_closed" : true,
      "photos" : [
        {
          "height" : 1080,
          "html_attributions" : [
            "\u003ca href=\"https://maps.google.com/maps/contrib/110655648112352155848\"\u003eVlad Kagan\u003c/a\u003e"
          ],
          "photo_reference" : "ATtYBwLJFpeukYWzLB3RE5G-kngzwwEp-q2I4zMgeQ7J-3_AdjR9QbIilgPBg-Xq4JjMWZSC9nFNvDjobo2hon-Y4xUcX4VYDzvF2F82WuYfMBYO9u0Fve7Aztq_1knj-XjvKcD0yXAK9LuIRHIao901wGKhnws4pUJfLPfIm2JE_Y4aNgEF",
          "width" : 1440
        }
      ],
      "place_id" : "ChIJ26qha4jXAhURAyMhiQcW26g",
      "plus_code" : {
        "compound_code" : "P5WM+Q5 ירושלים, ישראל",
        "global_code" : "8G3QP5WM+Q5"
      },
      "rating" : 4,
      "reference" : "ChIJ26qha4jXAhURAyMhiQcW26g",
      "scope" : "GOOGLE",
      "types" : [ "park", "point_of_interest", "establishment" ],
      "user_ratings_total" : 13,
      "vicinity" : "ירושלים"
    },
    {
      "business_status" : "OPERATIONAL",
      "geometry" : {
        "location" : {
          "lat" : 31.75927,
          "lng" : 35.1987755
        },
        "viewport" : {
          "northeast" : {
            "lat" : 31.76063488029149,
            "lng" : 35.2001202302915
          },
          "southwest" : {
            "lat" : 31.7579369197085,
            "lng" : 35.1974222697085
          }
        }
      },
      "icon" : "https://maps.gstatic.com/mapfiles/place_api/icons/v1/png_71/park-71.png",
      "name" : "עמק הצבאים",
      "opening_hours" : {
        "open_now" : true
      },
      "photos" : [
        {
          "height" : 2311,
          "html_attributions" : [
            "\u003ca href=\"https://maps.google.com/maps/contrib/116039316945440087718\"\u003eV. B.\u003c/a\u003e"
          ],
          "photo_reference" : "ATtYBwJqcz9O5w6ppjc4vj2AVeB97dBFf8qAWFW6v_sAAyX40LgU9xkScBcpLA_Y54gCXKND2EGXuWLmiIERHzPglXQX6TB_8R1L7hY-QWlHiQJ5l_NIGqJs1aXigy3wpMjDT9Q0Cbw7YRgLnCNBw2G57lUMuA6vtielhYJWVGIzZ3jlCT4v",
          "width" : 3625
        }
      ],
      "place_id" : "ChIJ0zG7Ou7XAhURvFVCmIkP05c",
      "plus_code" : {
        "compound_code" : "Q55X+PG ירושלים, ישראל",
        "global_code" : "8G3QQ55X+PG"
      },
      "rating" : 4.4,
      "reference" : "ChIJ0zG7Ou7XAhURvFVCmIkP05c",
      "scope" : "GOOGLE",
      "types" : [ "park", "tourist_attraction", "point_of_interest", "establishment" ],
      "user_ratings_total" : 4754,
      "vicinity" : "פארק עמק הצבאים, ירושלים"
    },
    {
      "business_status" : "CLOSED_TEMPORARILY",
      "geometry" : {
        "location" : {
          "lat" : 31.7533048,
          "lng" : 35.2008999
        },
        "viewport" : {
          "northeast" : {
            "lat" : 31.7546848302915,
            "lng" : 35.2022995302915
          },
          "southwest" : {
            "lat" : 31.75198686970851,
            "lng" : 35.1996015697085
          }
        }
      },
      "icon" : "https://maps.gstatic.com/mapfiles/place_api/icons/v1/png_71/park-71.png",
      "name" : "גן שעשועים קנאי הגליל ניתאי הארבלי",
      "permanently_closed" : true,
      "photos" : [
        {
          "height" : 1440,
          "html_attributions" : [
            "\u003ca href=\"https://maps.google.com/maps/contrib/114173210040194573640\"\u003eטוהר לשם\u003c/a\u003e"
          ],
          "photo_reference" : "ATtYBwIQ9ZJpnlYPXZ0dR9K4GVgMO9KfdSwPDJpSGCvNy9kea6VYWAffYNxQ2JbfgOP7IddrDKyURCv-NBqafBBvSG6kdDQb99EuZXsrlVqP2W0pleHSAQCG2E7pM-Vu7tDfgaErxpI5tVjsTvW0HV_68StAFA9vbmn08ixmR7pQshbdmnMW",
          "width" : 2560
        }
      ],
      "place_id" : "ChIJf5R84e7XAhURiUFAe_dfZNc",
      "plus_code" : {
        "compound_code" : "Q632+89 ירושלים, ישראל",
        "global_code" : "8G3QQ632+89"
      },
      "rating" : 3.5,
      "reference" : "ChIJf5R84e7XAhURiUFAe_dfZNc",
      "scope" : "GOOGLE",
      "types" : [ "park", "point_of_interest", "establishment" ],
      "user_ratings_total" : 17,
      "vicinity" : "קנאי הגליל 26, ירושלים"
    },
    {
      "business_status" : "OPERATIONAL",
      "geometry" : {
        "location" : {
          "lat" : 31.754776,
          "lng" : 35.19841540000001
        },
        "viewport" : {
          "northeast" : {
            "lat" : 31.7561300302915,
            "lng" : 35.19975968029149
          },
          "southwest" : {
            "lat" : 31.7534320697085,
            "lng" : 35.19706171970849
          }
        }
      },
      "icon" : "https://maps.gstatic.com/mapfiles/place_api/icons/v1/png_71/park-71.png",
      "name" : "פעוטון ורד",
      "opening_hours" : {
        "open_now" : true
      },
      "place_id" : "ChIJfwazat3XAhURfvjInb-lbLs",
      "plus_code" : {
        "compound_code" : "Q53X+W9 ירושלים, ישראל",
        "global_code" : "8G3QQ53X+W9"
      },
      "reference" : "ChIJfwazat3XAhURfvjInb-lbLs",
      "scope" : "GOOGLE",
      "types" : [ "park", "point_of_interest", "establishment" ],
      "vicinity" : "יצחק שדה 1, ירושלים"
    },
    {
      "business_status" : "CLOSED_TEMPORARILY",
      "geometry" : {
        "location" : {
          "lat" : 31.748997,
          "lng" : 35.1817873
        },
        "viewport" : {
          "northeast" : {
            "lat" : 31.7503658802915,
            "lng" : 35.1830842802915
          },
          "southwest" : {
            "lat" : 31.7476679197085,
            "lng" : 35.1803863197085
          }
        }
      },
      "icon" : "https://maps.gstatic.com/mapfiles/place_api/icons/v1/png_71/park-71.png",
      "name" : "גינה קהילתית מלחה",
      "permanently_closed" : true,
      "photos" : [
        {
          "height" : 3120,
          "html_attributions" : [
            "\u003ca href=\"https://maps.google.com/maps/contrib/112938331389721708688\"\u003eElvir Tchepovsky\u003c/a\u003e"
          ],
          "photo_reference" : "ATtYBwKwSOY1_pXqyBjInHPXmA2mo-HC75JuZ9r-H4xd8sV6Kon5xjeaxeeo2zuEcEXJK1IIXVq1tlnPQ9cHkMBm5m_xkRxe9QcWeWkYTkN5tUJTcZiXZV9BqPJhOmPGym_wocJVlMaAP7qZp784nwuxsGsZ8L-chqEgx147o42lqEPSBZx8",
          "width" : 4160
        }
      ],
      "place_id" : "ChIJ3cYSKIbXAhURMN6Pnb8XIrc",
      "plus_code" : {
        "compound_code" : "P5XJ+HP ירושלים, ישראל",
        "global_code" : "8G3QP5XJ+HP"
      },
      "rating" : 4,
      "reference" : "ChIJ3cYSKIbXAhURMN6Pnb8XIrc",
      "scope" : "GOOGLE",
      "types" : [ "park", "point_of_interest", "establishment" ],
      "user_ratings_total" : 33,
      "vicinity" : "האייל 73, ירושלים"
    },
    {
      "business_status" : "OPERATIONAL",
      "geometry" : {
        "location" : {
          "lat" : 31.74074029999999,
          "lng" : 35.18261380000001
        },
        "viewport" : {
          "northeast" : {
            "lat" : 31.74208708029149,
            "lng" : 35.1839657802915
          },
          "southwest" : {
            "lat" : 31.73938911970849,
            "lng" : 35.1812678197085
          }
        }
      },
      "icon" : "https://maps.gstatic.com/mapfiles/place_api/icons/v1/png_71/park-71.png",
      "name" : "פארק גילה",
      "opening_hours" : {
        "open_now" : true
      },
      "photos" : [
        {
          "height" : 3096,
          "html_attributions" : [
            "\u003ca href=\"https://maps.google.com/maps/contrib/110253468972627841560\"\u003eפסח קוק\u003c/a\u003e"
          ],
          "photo_reference" : "ATtYBwKFfa6j1B9ezRMf3RQvIqx1lcwD9hEm3m8vIx5NhxdMvTd6Z6CJ-W9KQW2K7jhxr8jlW3IfksnTqWpfr4iIhKjYKxpxBNdBHK4ycjrqqiC9F_dHo2Z_jhkFbeAD0UlXUN2glnZWd4lEn4ezfDdQaK4_Dp7HwYrZyJoIpBGWrEdKetMF",
          "width" : 4128
        }
      ],
      "place_id" : "ChIJB9kTCCbYAhURRh2s2tPBG7g",
      "plus_code" : {
        "compound_code" : "P5RM+72 ירושלים",
        "global_code" : "8G3QP5RM+72"
      },
      "rating" : 4,
      "reference" : "ChIJB9kTCCbYAhURRh2s2tPBG7g",
      "scope" : "GOOGLE",
      "types" : [ "park", "tourist_attraction", "point_of_interest", "establishment" ],
      "user_ratings_total" : 611,
      "vicinity" : "שכונת, Jerusalem"
    },
    {
      "business_status" : "CLOSED_TEMPORARILY",
      "geometry" : {
        "location" : {
          "lat" : 31.74253,
          "lng" : 35.181581
        },
        "viewport" : {
          "northeast" : {
            "lat" : 31.7434629802915,
            "lng" : 35.1834294802915
          },
          "southwest" : {
            "lat" : 31.7407650197085,
            "lng" : 35.1807315197085
          }
        }
      },
      "icon" : "https://maps.gstatic.com/mapfiles/place_api/icons/v1/png_71/park-71.png",
      "name" : "יער גילה",
      "permanently_closed" : true,
      "photos" : [
        {
          "height" : 3120,
          "html_attributions" : [
            "\u003ca href=\"https://maps.google.com/maps/contrib/107037173759670116403\"\u003eBenny Baraz\u003c/a\u003e"
          ],
          "photo_reference" : "ATtYBwJJhyHwPEtfXzmuXP0pCTUSxveKAEKUWk_CCshEH8VMAnTNxuo5llecCHupu42qt__DmFYcsMf1VapwXT63SSwdh5vZU7RT0xch7NSnvYRwn8piVUqIswMhdXTbKkMi6ZIFFfPhZ0aBqucLm4d9PmaHAuXfVUo1IGKPHva5NzQ1gPmn",
          "width" : 4160
        }
      ],
      "place_id" : "ChIJocOknijYAhURQM7v0LfpoQg",
      "plus_code" : {
        "compound_code" : "P5VJ+2J ירושלים",
        "global_code" : "8G3QP5VJ+2J"
      },
      "rating" : 4.3,
      "reference" : "ChIJocOknijYAhURQM7v0LfpoQg",
      "scope" : "GOOGLE",
      "types" : [ "tourist_attraction", "park", "point_of_interest", "establishment" ],
      "user_ratings_total" : 32,
      "vicinity" : "ירושלים"
    },
    {
      "business_status" : "CLOSED_TEMPORARILY",
      "geometry" : {
        "location" : {
          "lat" : 31.7553746,
          "lng" : 35.2017614
        },
        "viewport" : {
          "northeast" : {
            "lat" : 31.7567242302915,
            "lng" : 35.20310518029149
          },
          "southwest" : {
            "lat" : 31.7540262697085,
            "lng" : 35.2004072197085
          }
        }
      },
      "icon" : "https://maps.gstatic.com/mapfiles/place_api/icons/v1/png_71/park-71.png",
      "name" : "Park Alexandrion",
      "permanently_closed" : true,
      "photos" : [
        {
          "height" : 1080,
          "html_attributions" : [
            "\u003ca href=\"https://maps.google.com/maps/contrib/106337299827554869699\"\u003eMoises Zack\u003c/a\u003e"
          ],
          "photo_reference" : "ATtYBwIcE4Jzv9pTbIdAGXmDYNk7sTQLtysMiPX4cB2t1iR50dUN6EFa-CjMla_BOltyVohgyN2XPe_57j6XWb0lZtkHKHR46OmjF9sBD1jK0EESd0gF7K1YXg5WFqY6e67txtVHzd_4wKNxeEY4Tps2Ibvca66_Jvi7TO11dZbCXQ3HGFnC",
          "width" : 1920
        }
      ],
      "place_id" : "ChIJ-Rpx_07XAhURABP6uRojaJI",
      "plus_code" : {
        "compound_code" : "Q642+4P ירושלים, ישראל",
        "global_code" : "8G3QQ642+4P"
      },
      "rating" : 5,
      "reference" : "ChIJ-Rpx_07XAhURABP6uRojaJI",
      "scope" : "GOOGLE",
      "types" : [ "park", "point_of_interest", "establishment" ],
      "user_ratings_total" : 1,
      "vicinity" : "אלכסנדריון, ירושלים"
    },
    {
      "business_status" : "OPERATIONAL",
      "geometry" : {
        "location" : {
          "lat" : 31.7569968,
          "lng" : 35.1875336
        },
        "viewport" : {
          "northeast" : {
            "lat" : 31.7583457802915,
            "lng" : 35.18888258029151
          },
          "southwest" : {
            "lat" : 31.7556478197085,
            "lng" : 35.18618461970851
          }
        }
      },
      "icon" : "https://maps.gstatic.com/mapfiles/place_api/icons/v1/png_71/park-71.png",
      "name" : "גן שעשועים",
      "opening_hours" : {
        "open_now" : true
      },
      "photos" : [
        {
          "height" : 3000,
          "html_attributions" : [
            "\u003ca href=\"https://maps.google.com/maps/contrib/113058867138400994116\"\u003eMenachem Fooksman\u003c/a\u003e"
          ],
          "photo_reference" : "ATtYBwK579yWUXyuyiaJcWK-3lHfTJuqSKTFisM_YkH90qESzpBeJRcgqwG9DRqo9Sgmg5RXnfZeY7-n2UTQgMsLVcqQdrErvrq0zp2PyFToMVHU8HB7ZTpKHhr7jv0kYa8ZnBU8xUe4W33PjgQC5ms46zsXR1_HXUvFekl3Z2KmacnaMaiN",
          "width" : 4000
        }
      ],
      "place_id" : "ChIJ52pY1pPXAhURZK0UFbw2x2E",
      "plus_code" : {
        "compound_code" : "Q54Q+Q2 ירושלים, ישראל",
        "global_code" : "8G3QQ54Q+Q2"
      },
      "rating" : 4.3,
      "reference" : "ChIJ52pY1pPXAhURZK0UFbw2x2E",
      "scope" : "GOOGLE",
      "types" : [ "park", "point_of_interest", "establishment" ],
      "user_ratings_total" : 182,
      "vicinity" : "ירושלים"
    },
    {
      "business_status" : "CLOSED_TEMPORARILY",
      "geometry" : {
        "location" : {
          "lat" : 31.7438493,
          "lng" : 35.17749339999999
        },
        "viewport" : {
          "northeast" : {
            "lat" : 31.7451333802915,
            "lng" : 35.17886508029149
          },
          "southwest" : {
            "lat" : 31.7424354197085,
            "lng" : 35.1761671197085
          }
        }
      },
      "icon" : "https://maps.gstatic.com/mapfiles/place_api/icons/v1/png_71/park-71.png",
      "name" : "Guatemala park",
      "permanently_closed" : true,
      "photos" : [
        {
          "height" : 3024,
          "html_attributions" : [
            "\u003ca href=\"https://maps.google.com/maps/contrib/106172768417932131183\"\u003eAdam Shuster\u003c/a\u003e"
          ],
          "photo_reference" : "ATtYBwKmXwVYLWqL6sJgysYNOqozE-5RGaNQ-Rt1IhNkLfKd7b-mSQgVhWY7OWxOgNRZ4C6UPWW23X_buiiBEhIUzXx1vMIigpuso0u8Gt6hIU2cEqL3gqlER_YMFr2oLHfOOCzjrbHbJeqOsnPr5TYI1vBg_zgI23kA1wUqFN6lFocSTSfZ",
          "width" : 4032
        }
      ],
      "place_id" : "ChIJexGksI_ZAhUR_EXdEdmSva8",
      "plus_code" : {
        "compound_code" : "P5VG+GX ירושלים, ישראל",
        "global_code" : "8G3QP5VG+GX"
      },
      "reference" : "ChIJexGksI_ZAhUR_EXdEdmSva8",
      "scope" : "GOOGLE",
      "types" : [ "park", "point_of_interest", "establishment" ],
      "vicinity" : "ירושלים"
    }
  ],
  "status" : "OK"
}